name,currency,capital,languages,latitude,longitude,area,subregion,borders,GDP,GDP Growth,Interest Rate,Inflation Rate,Jobless Rate,Gov. Budget,Debt/GDP,Current Account,Population,region_Americas,region_Asia,region_Europe,region_Oceania
Tunisia,Tunisian dinar,Tunis,Arabic,0.7075471698113207,0.3963365647260458,0.009568702988809028,Northern Africa,"['DZA', 'LBY']",0.0017475927766165235,0.6028368794326242,0.12662502110417018,0.07951408061844284,0.4712990936555891,0.2806122448979592,0.28735632183908044,0.45786963434022254,0.008416432285008097,False,False,False,False
Vietnam,Vietnamese đồng,Hanoi,Vietnamese,0.5393081760377358,0.7492308333065538,0.019370998441209153,South-Eastern Asia,"['KHM', 'CHN', 'LAO']",0.016242332865024158,0.7229314420803783,0.07597501266250212,0.06786305908337935,0.06465256797583081,0.3469387755102041,0.11345939933259176,0.5977742448330683,0.07191965680843206,False,True,False,False
Ecuador,United States dollar,Quito,Spanish,0.36792452830188677,0.0874796922143074,0.016191080504415752,South America,"['COL', 'PER']",0.004214782578898674,0.642080378250591,0.14350835725139288,0.054224185532854775,0.13293051359516614,0.4005102040816327,0.17908787541713014,0.5453100158982511,0.012734736782294951,True,False,False,False
Puerto Rico,United States dollar,San Juan,English,0.5589622641509433,0.12675628871869032,0.000518648703631074,Caribbean,"['CHN', 'IND']",0.00424904910393037,0.5768321513002365,0.08863751477291913,0.05687465488680287,0.16918429003021146,0.36798469387755106,0.1950315164998146,0.48489666136724957,0.002244381942668826,True,False,False,False
United States,United States dollar,"Washington, D.C.",English,0.7452830188679245,0.01785299841108312,0.5481621494939387,North America,"['CAN', 'MEX']",1.0,0.6312056737588653,0.07597501266250212,0.06515737161789067,0.12386706948640483,0.2857142857142857,0.45235446792732664,0.4387917329093799,0.2422725077416972,True,False,False,False
Israel,Israeli new shekel,Jerusalem,Arabic,0.6836792452830188,0.4896363344223663,0.0012146267700238467,Western Asia,"['EGY', 'JOR', 'LBN', 'PSE', 'SYR']",0.018435390467052736,0.5815602836879433,0.07597501266250212,0.06736609607951408,0.08761329305135951,0.2755102040816327,0.24731182795698925,0.5516693163751987,0.007052757180601723,False,True,False,False
United Kingdom,British pound,London,English,0.8962264150943395,0.35705996822166286,0.014206022390849612,Northern Europe,['IRL'],0.1247986841654388,0.5673758865248227,0.06753334458889076,0.07123136388735504,0.1389728096676737,0.326530612244898,0.3470522803114572,0.45786963434022254,0.04914202108014433,False,False,True,False
Myanmar,Burmese kyat,Naypyidaw,Burmese,0.5943396226415094,0.7141199364433257,0.03956991952337775,South-Eastern Asia,"['BGD', 'CHN', 'IND', 'LAO', 'THA']",0.0024671898022821507,0.5768321513002365,0.15195002532500423,0.20806184428492547,0.08761329305135951,0.3035714285714286,0.21876158694846123,0.4133545310015898,0.03868007613852666,False,True,False,False
Poland,Polish złoty,Warsaw,Polish,0.8773584905660377,0.4356131612304287,0.018287085709742155,Central Europe,"['BLR', 'CZE', 'DEU', 'LTU', 'RUS', 'SVK', 'UKR']",0.03128533735393894,0.5791962174940899,0.08441668073611346,0.06736609607951408,0.1540785498489426,0.2806122448979592,0.19651464590285503,0.5007949125596184,0.025895622034716896,False,False,True,False
Afghanistan,Afghan afghani,Kabul,Dari,0.6981132075471698,0.5962901469301769,0.03814591330820706,Southern Asia,"['IRN', 'PAK', 'TKM', 'UZB', 'TJK', 'CHN']",0.0005139978754754481,0.5768321513002365,0.252237042039507,0.05135284373274434,0.3987915407854985,0.326530612244898,0.022246941045606233,0.2257551669316375,0.025327424074547574,False,True,False,False
Kenya,Kenyan shilling,Nairobi,English,0.3962264150943396,0.499883955510328,0.03394296609936808,Eastern Africa,"['ETH', 'SOM', 'SSD', 'TZA', 'UGA']",0.004214782578898674,0.5791962174940899,0.16039169339861556,0.07288790723357261,0.16012084592145015,0.3239795918367347,0.2343344456803856,0.44356120826709056,0.03718855649308219,False,False,False,False
Angola,Angolan kwanza,Luanda,Portuguese,0.2688679245283019,0.43025726170710377,0.07291381928539291,Middle Africa,"['COG', 'COD', 'ZMB', 'NAM']",0.00267278895247233,0.6146572104018913,0.32922505487084247,0.15781336278299282,0.8851963746223565,0.4107142857142857,0.20726733407489806,0.5866454689984101,0.024915480553424813,False,False,False,False
Bhutan,Bhutanese ngultrum,Thimphu,Dzongkha,0.6462264150943395,0.687340438826701,0.0022453761349067224,Southern Asia,"['CHN', 'IND']",3.4266525031696545e-05,0.5768321513002365,0.10771568461928077,0.07040309221424627,0.10574018126888217,0.44387755102040816,0.39110122358175753,0.15580286168521462,0.0005255831131566238,False,True,False,False
Malta,Euro,Valletta,English,0.7258254716981132,0.415529966257833,1.836329355344561e-05,Southern Europe,"['CHN', 'IND']",0.0007538635506973239,0.6099290780141844,0.036299172716528785,0.06405300938707896,0.07854984894259819,0.35459183673469385,0.1672228401928068,0.5914149443561207,0.0003764311486121764,False,False,True,False
Russia,Russian ruble,Moscow,Russian,0.9528301886792452,0.721261135807759,1.0,Eastern Europe,"['AZE', 'BLR', 'CHN', 'EST', 'FIN', 'GEO', 'KAZ', 'PRK', 'LVA', 'LTU', 'MNG', 'NOR', 'POL', 'UKR']",0.07442689236884488,0.541371158392435,0.30390005065000847,0.09884041965764771,0.0634441087613293,0.4056122448979592,0.05228031145717464,0.546899841017488,0.1038097673229353,False,False,True,False
Nepal,Nepalese rupee,Kathmandu,Nepali,0.6509433962264151,0.664131540892293,0.008607843858324417,Southern Asia,"['CHN', 'IND']",0.001404927526299558,0.5768321513002365,0.10130001688333615,0.06526780784097183,0.3202416918429003,0.21938775510204084,0.14942528735632185,0.5834658187599363,0.021030427000767068,False,True,False,False
Iraq,Iraqi dinar,Baghdad,Arabic,0.6981132075471698,0.5213075536036278,0.025635093466503094,Western Asia,"['IRN', 'JOR', 'KWT', 'SAU', 'SYR', 'TUR']",0.009526093958811637,0.5768321513002365,0.0928583488097248,0.046935394809497516,0.4652567975830816,0.4107142857142857,0.15053763440860216,0.4705882352941176,0.032671382709736074,False,True,False,False
Sudan,Sudanese pound,Khartoum,Arabic,0.5283018867924528,0.47131915805259494,0.11030760956719243,Northern Africa,"['CAF', 'TCD', 'EGY', 'ERI', 'ETH', 'LBY', 'SSD']",0.001644793201521434,0.5768321513002365,0.4777984129664022,0.8597459966869133,0.6253776435045317,0.3673469387755102,1.0000000000000002,0.4133545310015898,0.03580357396516947,False,False,False,False
Djibouti,Djiboutian franc,Djibouti,Arabic,0.4952830188679245,0.5177369539214112,0.001356746660892287,Eastern Africa,"['ERI', 'ETH', 'SOM']",6.853305006339308e-05,0.5768321513002365,0.18909336484889414,0.046935394809497516,0.7794561933534743,0.4362244897959184,0.15832406377456434,0.5993640699523052,0.0008025796187391687,False,False,False,False
Mozambique,Mozambican metical,Maputo,Portuguese,0.21462264150943394,0.4891721564636781,0.046881315324713325,Eastern Africa,"['MWI', 'ZAF', 'SWZ', 'TZA', 'ZMB', 'ZWE']",0.0006853305006339307,0.607565011820331,0.1730541955090326,0.07211485367200442,0.7534743202416918,0.32142857142857145,0.2766036336670375,0.3243243243243243,0.023580215347026905,False,False,False,False
South Africa,South African rand,Pretoria,Afrikaans,0.1132075471698113,0.4498955599592952,0.07141290456960822,Southern Africa,"['BWA', 'LSO', 'MOZ', 'NAM', 'SWZ', 'ZWE']",0.013638076962615223,0.5626477541371159,0.11818335303055884,0.06957482054113749,1.0,0.32142857142857145,0.2766036336670375,0.49125596184419706,0.04473138441432996,False,False,False,False
Liechtenstein,Swiss franc,Vaduz,German,0.8327044024528301,0.3982408845446593,9.23954747300254e-06,Western Europe,"['AUT', 'CHE']",0.00020559915019017924,0.5768321513002365,0.08863751477291913,0.05135284373274434,0.045317220543806644,0.36798469387755106,0.1950315164998146,0.48489666136724957,0.0,False,False,True,False
Burundi,Burundian franc,Gitega,French,0.35377358490566035,0.47131915805259494,0.001627768707922884,Eastern Africa,"['COD', 'RWA', 'TZA']",0.0,0.5768321513002365,0.2026000337666723,0.27995582551076753,0.02416918429003021,0.32142857142857145,0.040044493882091206,0.3656597774244833,0.00995056677746527,False,False,False,False
Rwanda,Rwandan franc,Kigali,English,0.36792452830188677,0.47131915805259494,0.001540274322433507,Eastern Africa,"['BDI', 'COD', 'TZA', 'UGA']",0.0004111983003803585,0.5366430260047281,0.11396251899375316,0.09000552181115407,0.40181268882175225,0.288265306122449,0.2406377456433074,0.28616852146263905,0.009773004914912356,False,False,False,False
Belgium,Euro,Brussels,German,0.8663522012264151,0.3784835663149626,0.0017853287844659203,Western Europe,"['FRA', 'DEU', 'LUX', 'NLD']",0.022718706096014805,0.5650118203309693,0.036299172716528785,0.060850358917725014,0.19335347432024166,0.33418367346938777,0.37968112717834634,0.48648648648648646,0.008423534759510213,False,False,True,False
Jordan,Jordanian dinar,Amman,Arabic,0.6792452830188679,0.49274275614589474,0.005225098027896553,Western Asia,"['IRQ', 'ISR', 'PSE', 'SAU', 'SYR']",0.0017475927766165235,0.5768321513002365,0.1097416849569475,0.059525124240750966,0.6404833836858006,0.3137755102040817,0.3259176863181313,0.4213036565977742,0.008302792692974233,False,True,False,False
Equatorial Guinea,Central African CFA franc,Malabo,French,0.40566037735849053,0.3999071644082624,0.0016404600726629877,Middle Africa,"['CMR', 'GAB']",0.00037693177534866196,0.5768321513002365,0.07597501266250212,0.07233572611816676,0.23262839879154076,0.41836734693877553,0.1256952169076752,0.4626391096979332,0.0013139577828915595,False,False,False,False
Spain,Euro,Madrid,Spanish,0.7641509433962264,0.3499187688572296,0.029593103184413255,Southern Europe,"['AND', 'FRA', 'GIB', 'PRT', 'MAR']",0.05897268957954974,0.5768321513002365,0.036299172716528785,0.06515737161789067,0.3078549848942598,0.3673469387755102,0.3689284390063033,0.5500794912559618,0.0348305349583795,False,False,True,False
Kyrgyzstan,Kyrgyzstani som,Bishkek,Kyrgyz,0.7735849056603773,0.6319961437523433,0.01169412642668968,Central Asia,"['CHN', 'KAZ', 'TJK', 'UZB']",0.0005139978754754481,0.5768321513002365,0.15617085936180988,0.09884041965764771,0.045317220543806644,0.5102040816326531,0.0875046347793845,0.10015898251192368,0.005156396488536606,False,True,False,False
Mauritania,Mauritanian ouguiya,Nouakchott,Arabic,0.5754716981132075,0.32135397139949656,0.060280940097087114,Western Africa,"['DZA', 'MLI', 'SEN', 'ESH']",0.00030839872528526884,0.5768321513002365,0.11396251899375316,0.05742683600220872,0.3102719033232628,0.42091836734693877,0.14089729328883943,0.35771065182829886,0.003643569419585784,False,False,False,False
Malawi,Malawian kwacha,Lilongwe,English,0.25943396226415094,0.4856015567814615,0.006929483978385476,Eastern Africa,"['MOZ', 'TZA', 'ZMB']",0.00030839872528526884,0.5768321513002365,0.43896673982779,0.20099392600773053,0.14803625377643503,0.23979591836734698,0.3166481275491287,0.19077901430842603,0.014389613341288106,False,False,False,False
Panama,Panamanian balboa,Panama City,Spanish,0.4716981132075471,0.07855319300876584,0.004410686719113414,Central America,"['COL', 'CRI']",0.002878388102662509,0.5768321513002365,0.03613033935505656,0.048260629486471564,0.283987915407855,0.26147959183673475,0.20133481646273638,0.49443561208267084,0.0031819085769482086,True,False,False,False
Thailand,Thai baht,Bangkok,Thai,0.5283018867924528,0.721261135807759,0.030009988197627346,South-Eastern Asia,"['MMR', 'KHM', 'LAO', 'MYS']",0.017955659116608985,0.574468085106383,0.025325004220834037,0.04638321369409166,0.02447129909365559,0.39285714285714285,0.22766036336670376,0.5230524642289348,0.04688343418847126,False,True,False,False
Turkey,Turkish lira,Ankara,Turkish,0.7547169811320754,0.4891721564636781,0.04582693779690417,Western Asia,"['ARM', 'AZE', 'BGR', 'GEO', 'GRC', 'IRN', 'IRQ', 'SYR']",0.04526607956687113,0.5839243498817968,0.7259834543305758,0.2353395913859746,0.256797583081571,0.3239795918367347,0.08305524657026325,0.4880763116057233,0.06081848916162391,False,True,False,False
Philippines,Philippine peso,Manila,English,0.5094339622641509,0.7998143288165248,0.020022585973787463,South-Eastern Asia,"['CHN', 'IND']",0.015762601514580407,0.5957446808510639,0.08863751477291913,0.05521811154058531,0.10876132930513595,0.3035714285714286,0.21653689284390065,0.4403815580286168,0.08015852723088725,False,True,False,False
Slovenia,Euro,Ljubljana,Slovene,0.8218553458490565,0.4171055528538018,0.0011855594507803838,Central Europe,"['AUT', 'HRV', 'ITA', 'HUN']",0.0023986567522187576,0.5768321513002365,0.036299172716528785,0.06570955273329651,0.1268882175226586,0.4260204081632653,0.23989618094178716,0.5707472178060413,0.00147731469644024,False,False,True,False
United Arab Emirates,United Arab Emirates dirham,Abu Dhabi,Arabic,0.6132075471698113,0.557013550425794,0.004889273989474092,Western Asia,"['OMN', 'SAU']",0.018332590891957646,0.607565011820331,0.07428667904777984,0.0661512976256212,0.06132930513595165,0.5637755102040816,0.11049314052651095,0.6486486486486486,0.007699082360294328,False,True,False,False
Georgia,lari,Tbilisi,Georgian,0.7830188679245282,0.5195222537625195,0.004076324819485894,Western Asia,"['ARM', 'AZE', 'RUS', 'TUR']",0.0010965288010142892,0.5768321513002365,0.13506668917778153,0.07399226946438431,0.4290030211480363,0.39540816326530615,0.1253244345569151,0.4308426073131955,0.002606608142276769,False,True,False,False
Greece,Euro,Athens,Greek,0.7547169811320754,0.44275436059486195,0.007719389840965375,Southern Europe,"['ALB', 'BGR', 'TUR', 'MKD']",0.008737963883082617,0.5602836879432624,0.036299172716528785,0.06736609607951408,0.23564954682779454,0.48214285714285715,0.5609936967000371,0.3990461049284578,0.00736526605869485,False,False,True,False
Armenia,Armenian dram,Yerevan,Armenian,0.7641509433962264,0.5248781532858444,0.0017394176263047165,Western Asia,"['AZE', 'GEO', 'IRN', 'TUR']",0.000822396600760717,0.5768321513002365,0.11396251899375316,0.06902263942573164,0.4169184290030212,0.36862244897959184,0.1779755283648498,0.5453100158982511,0.0020952299781243785,False,True,False,False
Costa Rica,Costa Rican colón,San José,Spanish,0.48113207547169806,0.06427079427989929,0.0029884935560484513,Central America,"['NIC', 'PAN']",0.003186786827947778,0.5650118203309693,0.06331251055208509,0.04688017669795693,0.22356495468277945,0.4005102040816327,0.2665183537263627,0.478537360890302,0.0036364669450836672,True,False,False,False
Tanzania,Tanzanian shilling,Dodoma,English,0.330188679245283,0.4891721564636781,0.0552738165510296,Eastern Africa,"['BDI', 'COD', 'KEN', 'MWI', 'MOZ', 'RWA', 'UGA', 'ZMB']",0.0026385224274406336,0.5957446808510639,0.09707918284653047,0.06847045831032578,0.26586102719033233,0.3622448979591837,0.17018909899888768,0.4610492845786963,0.047046791102019946,False,False,False,False
South Sudan,South Sudanese pound,Juba,English,0.45283018867924524,0.47131915805259494,0.03624601015805839,Middle Africa,"['CAF', 'COD', 'ETH', 'KEN', 'SDN', 'UGA']",0.0003426652503169654,0.5768321513002365,0.2026000337666723,0.6720044174489233,0.37462235649546827,0.36798469387755106,0.1950315164998146,0.48489666136724957,0.00845194465751868,False,False,False,False
Iran,Iranian rial,Tehran,Persian (Farsi),0.6886792452830188,0.5534429507435774,0.09639547590441529,Southern Asia,"['AFG', 'ARM', 'AZE', 'IRQ', 'PAK', 'TUR', 'TKM']",0.014905938388787994,0.5768321513002365,0.3883167313861219,0.26394257316399783,0.21450151057401812,0.3086734693877551,0.12791991101223582,0.546899841017488,0.061052870820193755,False,True,False,False
Mongolia,Mongolian tögrög,Ulan Bator,Mongolian,0.820754716981132,0.7391141342188421,0.09147771828150467,Eastern Asia,"['CHN', 'RUS']",0.0007538635506973239,0.7044917257683215,0.2026000337666723,0.09497515184980673,0.13293051359516614,0.45408163265306123,0.11383018168335188,0.3910969793322734,0.002485866075740788,False,True,False,False
Moldova,Moldovan leu,Chișinău,Romanian,0.830188679245283,0.4677485583703783,0.0019793838453307285,Eastern Europe,"['ROU', 'UKR']",0.0005482644005071446,0.5862884160756502,0.10552085092014182,0.09387078961899503,0.1299093655589124,0.548469387755102,0.11976269929551353,0.31160572337042924,0.001690388931503736,False,False,True,False
New Zealand,New Zealand dollar,Wellington,English,0.0,0.9854855122917895,0.015818293597257137,Australia and New Zealand,"['CHN', 'IND']",0.008840763458177707,0.5791962174940899,0.050650008441668073,0.06515737161789067,0.1540785498489426,0.36989795918367346,0.15906562847608455,0.41017488076311603,0.003778516435125998,False,False,False,True
Somalia,Somali shilling,Mogadishu,Arabic,0.48113207547169806,0.5391605520147109,0.037293603361859,Eastern Africa,"['DJI', 'ETH', 'KEN']",0.0003426652503169654,0.5768321513002365,0.08863751477291913,0.07454445057979017,0.1540785498489426,0.36798469387755106,0.1950315164998146,0.48489666136724957,0.013473394130515072,False,False,False,False
Guyana,Guyanese dollar,Georgetown,English,0.43396226415094336,0.15353578633531503,0.012572462443587718,South America,"['BRA', 'SUR', 'VEN']",0.0007881300757290204,0.5768321513002365,0.08441668073611346,0.07344008834897847,0.30513595166163143,0.2602040816326531,0.08157211716722285,0.8918918918918919,0.0005255831131566238,True,False,False,False
India,Indian rupee,New Delhi,English,0.5754716981132075,0.6391373431167765,0.19227639709382532,Southern Asia,"['BGD', 'BTN', 'MMR', 'CHN', 'NPL', 'PAK']",0.13401637939896519,0.607565011820331,0.0928583488097248,0.058807288790723354,0.1540785498489426,0.326530612244898,0.29399332591768634,0.49125596184419706,0.9933236739680105,False,True,False,False
Niger,West African CFA franc,Niamey,French,0.5377358490566038,0.39276596504382916,0.07410107598688646,Western Africa,"['DZA', 'BEN', 'BFA', 'TCD', 'LBY', 'MLI', 'NGA']",0.0006167974505705377,0.5768321513002365,0.08863751477291913,0.0,0.00906344410876133,0.3392857142857143,0.1657397107897664,0.3917329093799682,0.019169578681212537,False,False,False,False
Republic of the Congo,Central African CFA franc,Brazzaville,French,0.3773584905660377,0.4177601628193455,0.02000194057400287,Middle Africa,"['AGO', 'CMR', 'CAF', 'COD', 'GAB']",0.00047973135044375155,0.5768321513002365,0.07597501266250212,0.07785753727222529,0.595166163141994,0.5178571428571428,0.3451983685576567,0.5389507154213036,0.004467456461831302,False,False,False,False
South Korea,South Korean won,Seoul,Korean,0.7358490566037735,0.8194526270687162,0.0058607190048340875,Eastern Asia,['PRK'],0.058630024329232776,0.574468085106383,0.04220834036805673,0.061844284925455545,0.07250755287009063,0.3494897959183674,0.1649981460882462,0.5850556438791732,0.03672689565044462,False,True,False,False
Ivory Coast,West African CFA franc,Yamoussoukro,French,0.4622641509433962,0.346348169175013,0.01885930834853097,Western Africa,"['BFA', 'GHA', 'GIN', 'LBR', 'MLI']",0.002912654627694206,0.5768321513002365,0.08863751477291913,0.04583103257868581,0.06646525679758307,0.3469387755102041,0.12458286985539488,0.42448330683624796,0.02264979118724964,False,False,False,False
Maldives,Maldivian rufiyaa,Malé,Maldivian,0.41745283018867924,0.62485494438791,1.7427524724682217e-05,Southern Asia,"['CHN', 'IND']",0.0001713326251584827,0.5768321513002365,0.11818335303055884,0.07123136388735504,0.13595166163141992,0.1301020408163266,0.2228401928068224,0.1764705882352941,0.00034802125060371037,False,True,False,False
Serbia,Serbian dinar,Belgrade,Serbian,0.8018867924528301,0.4391837609126453,0.005167723701582998,Southeast Europe,"['BIH', 'BGR', 'HRV', 'HUN', 'UNK', 'MKD', 'MNE', 'ROU']",0.002981187677757599,0.5460992907801419,0.09707918284653047,0.07730535615681944,0.2719033232628399,0.39285714285714285,0.16648127549128663,0.4006359300476947,0.004637915849882099,False,False,True,False
Mali,West African CFA franc,Bamako,French,0.5471698113207547,0.3499187688572296,0.07253319531429339,Western Africa,"['DZA', 'BFA', 'GIN', 'CIV', 'MRT', 'NER', 'SEN']",0.0008566631257924135,0.5768321513002365,0.08863751477291913,0.07951408061844284,0.09063444108761329,0.3775510204081633,0.1950315164998146,0.3825119236883942,0.01735844768317282,False,False,False,False
Algeria,Algerian dinar,Algiers,Arabic,0.6509433962264151,0.374912966632746,0.13929731848341972,Northern Africa,"['TUN', 'LBY', 'NER', 'ESH', 'MRT', 'MLI', 'MAR']",0.008977829558304493,1.0,0.050650008441668073,0.049033683048039754,0.34229607250755284,0.21173469387755103,0.1627734519836856,0.5214626391096979,0.03321827324639905,False,False,False,False
Laos,Lao kip,Vientiane,Lao,0.5566037735849056,0.7391141342188421,0.013849260524883568,South-Eastern Asia,"['MMR', 'KHM', 'CHN', 'THA', 'VNM']",0.0005139978754754481,0.5768321513002365,0.16039169339861556,0.07951408061844284,0.033232628398791535,0.3903061224489796,0.24623655913978493,0.5519872813990461,0.005404983096110686,False,True,False,False
Cameroon,Central African CFA franc,Yaoundé,English,0.4433962264150943,0.40704836377269565,0.027806369576993152,Middle Africa,"['CAF', 'TCD', 'COG', 'GNQ', 'GAB', 'NGA']",0.0016790597265531305,0.624113475177305,0.07597501266250212,0.06847045831032578,0.10271903323262839,0.43112244897959184,0.14979606970708195,0.4499205087440381,0.02063979090315066,False,False,False,False
Finland,Euro,Helsinki,Finnish,0.990566037735849,0.45703675932372845,0.019792796240774253,Northern Europe,"['NOR', 'SWE', 'RUS']",0.010211424459445569,0.5602836879432624,0.036299172716528785,0.05135284373274434,0.2960725075528701,0.336734693877551,0.29588431590656283,0.5007949125596184,0.0039489758231767945,False,False,True,False
Zimbabwe,Zimbabwean dollar,Harare,Chibarwe,0.1981132075471698,0.47131915805259494,0.022853520623003915,Southern Africa,"['BWA', 'MOZ', 'ZAF', 'ZMB']",0.0014391940513312545,0.5768321513002365,0.5909167651527942,0.57923799006074,0.256797583081571,0.41836734693877553,0.3140526510938079,0.5214626391096979,0.010753146396204437,False,False,False,False
Bolivia,Bolivian boliviano,Sucre,Aymara,0.22641509433962262,0.13211218824201526,0.0642509978386676,South America,"['ARG', 'BRA', 'CHL', 'PRY', 'PER']",0.001644793201521434,0.7468085106382979,0.0683775113962519,0.1875207067918277,0.06948640483383685,0.25,0.34371523915461627,0.45786963434022254,0.008785760959118157,True,False,False,False
Lesotho,Lesotho loti,Maseru,English,0.10849056603773582,0.46596325852927,0.001775210784004916,Southern Africa,['ZAF'],0.0,0.5491725768321514,0.11818335303055884,0.07399226946438431,0.48338368580060426,0.6632653061224489,0.2139414163885799,0.49443561208267084,0.0016335691354868037,False,False,False,False
Hungary,Hungarian forint,Budapest,Hungarian,0.830188679245283,0.4356131612304287,0.00544067577182292,Central Europe,"['AUT', 'HRV', 'ROU', 'SRB', 'SVK', 'SVN', 'UKR']",0.007572902032004935,0.5697399527186762,0.1097416849569475,0.07399226946438431,0.13293051359516614,0.3239795918367347,0.26399703374119393,0.5357710651828298,0.006775760675019177,False,False,True,False
Turkmenistan,Turkmenistan manat,Ashgabat,Russian,0.7641509433962264,0.5784371485190938,0.02854667969164859,Central Asia,"['AFG', 'IRN', 'KAZ', 'UZB']",0.0021245245519651854,0.5768321513002365,0.08863751477291913,0.08061844284925455,0.12356495468277945,0.46938775510204084,0.008527994067482388,0.5945945945945945,0.005291343504076821,False,True,False,False
Norway,Norwegian krone,Oslo,Norwegian Nynorsk,0.9716981132075471,0.3999071644082624,0.018937620502388106,Northern Europe,"['FIN', 'SWE', 'RUS']",0.016516465065277732,0.5791962174940899,0.07175417862569644,0.06847045831032578,0.16012084592145015,0.7857142857142856,0.19577308120133483,0.7662957074721779,0.003913463450666212,False,False,True,False
Peru,Peruvian sol,Lima,Aymara,0.29245283018867924,0.09283559173763234,0.07516644879843358,South America,"['BOL', 'BRA', 'CHL', 'COL', 'ECU']",0.009834492684096906,0.574468085106383,0.07597501266250212,0.05958034235229155,0.18126888217522658,0.3673469387755102,0.11308861698183166,0.5357710651828298,0.024148413307196227,True,False,False,False
Cuba,Cuban convertible peso,Havana,Spanish,0.5896226415094339,0.07855319300876584,0.006426508232925153,Caribbean,"['CHN', 'IND']",0.0035979851283281365,0.5768321513002365,0.03798750633125106,0.12959690778575372,0.042296072507552865,0.1658163265306123,0.43270300333704115,0.49284578696343395,0.006896502741555158,True,False,False,False
Lithuania,Euro,Vilnius,Lithuanian,0.9150943396226414,0.4498955599592952,0.0038189883915759615,Northern Europe,"['BLR', 'LVA', 'POL', 'RUS']",0.0028441215776308128,0.5650118203309693,0.036299172716528785,0.07123136388735504,0.256797583081571,0.41581632653061223,0.13311086392287727,0.5310015898251191,0.0020242052331032132,False,False,True,False
Mauritius,Mauritian rupee,Port Louis,English,0.19544025160377354,0.569689179297663,0.00011919238485270109,Eastern Africa,"['CHN', 'IND']",0.000445464825412055,0.5815602836879433,0.07597501266250212,0.078961899503037,0.1782477341389728,0.3035714285714286,0.29588431590656283,0.43402225755166923,0.0008665018892582176,False,False,False,False
Saudi Arabia,Saudi riyal,Riyadh,Arabic,0.6226415094339622,0.5248781532858444,0.12572568770320885,Western Asia,"['IRQ', 'JOR', 'KWT', 'OMN', 'QAT', 'ARE', 'YEM']",0.042353424939176924,0.6099290780141844,0.08441668073611346,0.061844284925455545,0.08157099697885195,0.3775510204081633,0.10233592880978865,0.5945945945945945,0.02504332509446291,False,True,False,False
Benin,West African CFA franc,Porto-Novo,French,0.4764150943396226,0.3722350168710835,0.006586641673747289,Western Africa,"['BFA', 'NER', 'NGA', 'TGO']",0.0006510639756022342,0.5768321513002365,0.08863751477291913,0.05577029265599116,0.039274924471299086,0.35459183673469385,0.18798665183537264,0.3990461049284578,0.009737492542401773,False,False,False,False
Slovakia,Euro,Bratislava,Slovak,0.8459119496226415,0.4338278613893204,0.0028678378626897714,Central Europe,"['AUT', 'CZE', 'HUN', 'POL', 'UKR']",0.004797313504437515,0.5626477541371159,0.036299172716528785,0.07454445057979017,0.14803625377643503,0.3137755102040817,0.21134593993325917,0.45627980922098565,0.003821131282138697,False,False,True,False
Cape Verde,Cape Verdean escudo,Praia,Portuguese,0.5428188679245283,0.281928123828397,0.00023575408958554107,Western Africa,"['CHN', 'IND']",3.4266525031696545e-05,0.4893617021276596,0.04220834036805673,0.06515737161789067,0.35649546827794565,0.375,0.396366332962551,0.40858505564387915,0.00039063609761640956,False,False,False,False
Uzbekistan,Uzbekistani soʻm,Tashkent,Russian,0.7735849056603773,0.5927195472479603,0.026166317733481714,Central Asia,"['AFG', 'KAZ', 'KGZ', 'TJK', 'TKM']",0.0038721173285817087,0.5768321513002365,0.23636670606111768,0.09939260077305356,0.13293051359516614,0.37244897959183676,0.12124582869855394,0.4213036565977742,0.02610869626978039,False,True,False,False
Sweden,Swedish krona,Stockholm,Swedish,0.9716981132075471,0.4177601628193455,0.02633563340593609,Northern Europe,"['FIN', 'NOR']",0.020834047219271495,0.5626477541371159,0.03376667229444538,0.054665930425179456,0.23867069486404832,0.4107142857142857,0.11568409343715239,0.5961844197138314,0.007493110599732947,False,False,True,False
Bangladesh,Bangladeshi taka,Dhaka,Bengali,0.6132075471698113,0.6855551389855927,0.008630594737973727,Southern Asia,"['MMR', 'IND']",0.01535140321420005,0.697872340425532,0.1688333614722269,0.09745996686913308,0.1389728096676737,0.3316326530612245,0.10901001112347052,0.478537360890302,0.12185005255831131,False,True,False,False
Taiwan,New Taiwan dollar,Taipei,Chinese,0.6084905660377358,0.7962437291343081,0.0021166494353999587,Eastern Asia,"['CHN', 'IND']",0.025871226398930885,0.632387706855792,0.03376667229444538,0.05875207067918277,0.09758308157099697,0.45918367346938777,0.09603262884686689,0.7503974562798091,0.01659138043694423,False,True,False,False
Italy,Euro,Rome,Italian,0.7908805031132076,0.4100238634959742,0.01762368409570071,Southern Europe,"['AUT', 'FRA', 'SMR', 'SVN', 'CHE', 'VAT']",0.0812459308501525,0.557919621749409,0.036299172716528785,0.05963556046383214,0.18731117824773413,0.3622448979591837,0.4931405265109381,0.5182829888712241,0.04182647234296429,False,False,True,False
Chad,Central African CFA franc,N'Djamena,Arabic,0.5283018867924528,0.4320425615482121,0.07509533036744756,Middle Africa,"['CMR', 'CAF', 'LBY', 'NER', 'NGA', 'SDN']",0.0006510639756022342,0.5768321513002365,0.07597501266250212,0.024295969077857534,0.02416918429003021,0.3979591836734694,0.11679644048943269,0.34658187599364065,0.013239012471945226,False,False,False,False
Syria,Syrian pound,Damascus,Arabic,0.7169811320754716,0.499883955510328,0.010830236341085675,Western Asia,"['IRQ', 'ISR', 'JOR', 'LBN', 'TUR']",0.0006167974505705377,0.5768321513002365,0.08863751477291913,0.13787962451684152,0.38972809667673713,0.15816326530612246,0.10274378939562477,0.48648648648648646,0.017493394698713034,False,True,False,False
Chile,Chilean peso,Santiago,Spanish,0.10377358490566035,0.11068859014871546,0.044220924544539,South America,"['ARG', 'BOL', 'PER']",0.011239420210396464,0.5697399527186762,0.08019584669930778,0.07399226946438431,0.26586102719033233,0.3775510204081633,0.1460882461994809,0.47694753577106513,0.013096962981902896,True,False,False,False
Senegal,West African CFA franc,Dakar,French,0.5188679245283019,0.3142127720350633,0.011505276579934868,Western Africa,"['GMB', 'GIN', 'GNB', 'MLI', 'MRT']",0.0010279957509508962,0.5319148936170213,0.08863751477291913,0.06018774157923799,0.6525679758308157,0.15051020408163268,0.19948090470893587,0.30842607313195547,0.013324242165970624,False,False,False,False
Burkina Faso,West African CFA franc,Ouagadougou,French,0.5094339622641509,0.35705996822166286,0.01596450747675142,Western Africa,"['BEN', 'CIV', 'GHA', 'MLI', 'NER', 'TGO']",0.0007195970256656273,0.5768321513002365,0.08863751477291913,0.056322473771397014,0.1540785498489426,0.3035714285714286,0.18687430478309233,0.41494435612082664,0.01659138043694423,False,False,False,False
Romania,Romanian leu,Bucharest,Romanian,0.820754716981132,0.4534661596415118,0.013942311037793727,Southeast Europe,"['BGR', 'HUN', 'MDA', 'SRB', 'UKR']",0.013055546037076381,0.5886524822695036,0.1097416849569475,0.09353948094975151,0.17220543806646524,0.21173469387755103,0.1946607341490545,0.3815580286168521,0.01349470155402142,False,False,True,False
Brazil,Brazilian real,Brasília,Portuguese,0.29245283018867924,0.16781818506418153,0.4980492138349318,South America,"['ARG', 'BOL', 'COL', 'GUF', 'GUY', 'PRY', 'PER', 'SUR', 'URY', 'VEN']",0.07459822499400337,0.5933806146572105,0.25325004220834035,0.07912755383765875,0.17220543806646524,0.23214285714285718,0.27512050426399703,0.4602543720190779,0.1509559930679849,True,False,False,False
Estonia,Euro,Tallinn,Estonian,0.9433962264150944,0.45703675932372845,0.0026450079103404888,Northern Europe,"['LVA', 'RUS']",0.001404927526299558,0.5531914893617021,0.036299172716528785,0.0800662617338487,0.23262839879154076,0.4107142857142857,0.07897664071190212,0.4833068362480127,0.0009517315832836159,False,False,True,False
Togo,West African CFA franc,Lomé,French,0.4622641509433962,0.3683668671915448,0.003320983918018444,Western Africa,"['BEN', 'BFA', 'GHA']",0.0002741322002535723,0.5768321513002365,0.08863751477291913,0.04417448923246825,0.09063444108761329,0.29336734693877553,0.24731182795698925,0.4483306836248012,0.006733145828006477,False,False,False,False
Cambodia,Cambodian riel,Phnom Penh,Khmer,0.5094339622641509,0.7391141342188421,0.01058781372888416,South-Eastern Asia,"['LAO', 'THA', 'VNM']",0.0015077271013946476,0.5768321513002365,0.00709100118183353,0.05941468801766979,0.00513595166163142,0.36122448979591837,0.09010011123470524,0.5214626391096979,0.012500355123725106,False,True,False,False
Dominican Republic,Dominican peso,Santo Domingo,Spanish,0.5660377358490566,0.11187879006659168,0.002846432150731809,Caribbean,['HTI'],0.004180516053866977,0.5484633569739953,0.09707918284653047,0.06902263942573164,0.14501510574018125,0.3701530612244898,0.2049314052651094,0.44674085850556433,0.007642262564277395,True,False,False,False
Canada,Canadian dollar,Ottawa,English,0.9528301886792452,0.024994197775516425,0.5839588163272463,North America,['USA'],0.07672274954596855,0.5721040189125296,0.0464291744048624,0.05963556046383214,0.20543806646525678,0.39540816326530615,0.40229885057471265,0.48489666136724957,0.029468166709281516,True,False,False,False
Paraguay,Paraguayan guaraní,Asunción,Guaraní,0.16981132075471697,0.15710638601753166,0.023788997024008315,South America,"['ARG', 'BOL', 'BRA']",0.0014391940513312545,0.6382978723404256,0.10130001688333615,0.07399226946438431,0.16616314199395768,0.39540816326530615,0.15906562847608455,0.4387917329093799,0.0054120855706128014,True,False,False,False
Kazakhstan,Kazakhstani tenge,Astana,Kazakh,0.8398075471698112,0.6031589095388571,0.15936716195277076,Central Asia,"['CHN', 'KGZ', 'RUS', 'TKM', 'UZB']",0.00980022615906521,0.5900709219858157,0.2785750464291744,0.1154058531198233,0.13595166163141992,0.3903061224489796,0.07934742306266221,0.5214626391096979,0.014368305917781755,False,True,False,False
Indonesia,Indonesian rupiah,Jakarta,Indonesian,0.33962264150943394,0.7926731294520915,0.1113896507610019,South-Eastern Asia,"['TLS', 'MYS', 'PNG']",0.047767535894184976,0.655791962174941,0.08441668073611346,0.06333517393705135,0.14078549848942595,0.3903061224489796,0.13533555802743788,0.490779014308426,0.19997727208159327,False,True,False,False
Luxembourg,Euro,Luxembourg,German,0.8561320754716981,0.386219865602628,0.00015112549613425182,Western Europe,"['BEL', 'FRA', 'DEU']",0.003118253777884385,0.5366430260047281,0.036299172716528785,0.06294864715626725,0.17522658610271902,0.4744897959183673,0.08898776418242492,0.6104928457869634,0.0004474558936333419,False,False,True,False
Comoros,Comorian franc,Moroni,Arabic,0.2720125786792452,0.522200203524182,0.00010878195663270835,Eastern Africa,"['CHN', 'IND']",0.0,0.5768321513002365,0.05200067533344589,0.07454445057979017,0.11480362537764349,0.3673469387755102,0.0967741935483871,0.44515103338632744,0.0005895053836756727,False,False,False,False
Bulgaria,Bulgarian lev,Sofia,Bulgarian,0.7924528301886792,0.4534661596415118,0.006484701356963877,Southeast Europe,"['GRC', 'MKD', 'ROU', 'SRB', 'TUR']",0.0037693177534866193,0.5768321513002365,0.030727671787945297,0.07951408061844284,0.1510574018126888,0.37244897959183676,0.08083055246570264,0.48489666136724957,0.0045455836813545845,False,False,True,False
Honduras,Honduran lempira,Tegucigalpa,Spanish,0.5283018867924528,0.05534429507435773,0.006579038552013586,Central America,"['GTM', 'SLV', 'NIC']",0.0011993283761093788,0.6004728132387707,0.09707918284653047,0.07459966869133075,0.1540785498489426,0.4035714285714286,0.13904338153503892,0.42766295707472174,0.00699593738458479,True,False,False,False
Uruguay,Uruguayan peso,Montevideo,Spanish,0.07547169811320753,0.1642475853819649,0.010587755243332362,South America,"['ARG', 'BRA']",0.0027070554775040266,0.574468085106383,0.14772919128819856,0.07526228602981778,0.2175226586102719,0.3673469387755102,0.25213199851687057,0.4483306836248012,0.0025071734992471377,True,False,False,False
Ethiopia,Ethiopian birr,Addis Ababa,Amharic,0.4622641509433962,0.499883955510328,0.06458547670939872,Eastern Africa,"['DJI', 'ERI', 'KEN', 'SOM', 'SSD', 'SDN']",0.0055511770551348386,0.5768321513002365,0.25325004220834035,0.1258972943125345,0.5679758308157099,0.3979591836734694,0.11012235817575083,0.44674085850556433,0.09376686837694254,False,False,False,False
Tajikistan,Tajikistani somoni,Dushanbe,Russian,0.7547169811320754,0.6177137450234768,0.008369164321437954,Central Asia,"['AFG', 'CHN', 'KGZ', 'UZB']",0.0004111983003803585,0.5768321513002365,0.13084585514097585,0.06957482054113749,0.3474320241691843,0.4846938775510204,0.10085279940674824,0.5993640699523052,0.007429188329213898,False,True,False,False
Botswana,Botswana pula,Gaborone,English,0.1792452830188679,0.4498955599592952,0.03403847300545375,Southern Africa,"['NAM', 'ZAF', 'ZMB', 'ZWE']",0.0005825309255388411,0.557919621749409,0.03207833867972311,0.056322473771397014,0.6948640483383686,0.21938775510204084,0.08379681127178346,0.38473767885532584,0.0017614136765249015,False,False,False,False
Albania,Albanian lek,Tirana,Albanian,0.7735849056603773,0.4356131612304287,0.001681224502265993,Southeast Europe,"['MNE', 'GRC', 'MKD', 'UNK']",0.0008566631257924135,0.5768321513002365,0.04220834036805673,0.06405300938707896,0.2598187311178248,0.43112244897959184,0.19428995179829442,0.4626391096979332,0.0016477740844910369,False,False,True,False
Nigeria,Nigerian naira,Abuja,English,0.48113207547169806,0.39276596504382916,0.05402696307225418,Western Africa,"['BEN', 'CMR', 'TCD', 'NER']",0.006373573655895555,0.7966903073286052,0.464291744048624,0.17106570955273329,0.1268882175226586,0.29336734693877553,0.18761586948461254,0.49284578696343395,0.16523196681723915,False,False,False,False
Gambia,dalasi,Banjul,English,0.5138364779245282,0.3050482328745113,0.0006250339223511121,Western Africa,['SEN'],3.4266525031696545e-05,0.5768321513002365,0.28701671450278576,0.08978464936499173,0.19335347432024166,0.35714285714285715,0.25843529847979235,0.4531001589825119,0.001931873064575698,False,False,False,False
Cyprus,Euro,Nicosia,Greek,0.7169811320754716,0.4820309570992448,0.0005409316988660023,Southern Europe,"['CHN', 'IND']",0.0011650618510776823,0.5721040189125296,0.036299172716528785,0.04527885146327995,0.11178247734138971,0.5586734693877551,0.2324805339265851,0.36724960254372013,0.0006676326031989545,False,False,True,False
Portugal,Euro,Lisbon,Portuguese,0.7594339622641508,0.33563637012836306,0.005385816324236666,Southern Europe,['ESP'],0.010519823184730838,0.574468085106383,0.036299172716528785,0.06460519050248481,0.1782477341389728,0.46683673469387754,0.34334445680385617,0.5357710651828298,0.007606750191766811,False,False,True,False
China,Chinese yuan,Beijing,Chinese,0.7169811320754716,0.7391141342188421,0.5677168522230555,Eastern Asia,"['AFG', 'BTN', 'MMR', 'HKG', 'IND', 'KAZ', 'NPL', 'PRK', 'KGZ', 'LAO', 'MAC', 'MNG', 'PAK', 'RUS', 'TJK', 'VNM']",0.6422232121440565,0.5862884160756502,0.050650008441668073,0.05024848150193263,0.1540785498489426,0.28316326530612246,0.3188728216536893,0.5357710651828298,1.0,False,True,False,False
Singapore,Singapore dollar,Singapore,English,0.39968553452830186,0.7348294146001821,4.140660096174413e-05,South-Eastern Asia,"['CHN', 'IND']",0.018675256142274613,0.5933806146572105,0.025493837582306264,0.054665930425179456,0.060422960725075525,0.40816326530612246,0.6332962550982573,0.779014308426073,0.004261484701269923,False,True,False,False
Denmark,Danish krone,Copenhagen,Danish,0.9150943396226414,0.3999071644082624,0.0025202582283559687,Northern Europe,['DEU'],0.014631806188534421,0.591016548463357,0.027013337835556307,0.06294864715626725,0.07250755287009063,0.5637755102040816,0.1067853170189099,0.6931637519872813,0.00420466490525299,False,False,True,False
Ghana,Ghanaian cedi,Accra,English,0.4622641509433962,0.35705996822166286,0.013950615986149002,Western Africa,"['BFA', 'CIV', 'TGO']",0.0027755885275674197,0.5933806146572105,0.4220834036805673,0.11706239646604086,0.08761329305135951,0.326530612244898,0.25287356321839083,0.5707472178060413,0.024425409812778773,False,False,False,False
Liberia,Liberian dollar,Monrovia,English,0.44811320754716977,0.3302804706050381,0.0065133592773447555,Western Africa,"['GIN', 'CIV', 'SLE']",0.00010279957509508961,0.5768321513002365,0.29123754853959144,0.1049144119271121,0.08459214501510573,0.38010204081632654,0.1950315164998146,0.7265500794912558,0.003956078297678912,False,False,False,False
Hong Kong,Hong Kong dollar,City of Victoria,English,0.5968584905660377,0.7719208040990485,6.444990837004267e-05,Eastern Asia,['CHN'],0.013877942637837098,0.5697399527186762,0.08019584669930778,0.05577029265599116,0.10876132930513595,0.32142857142857145,0.025954764553207273,0.68362480127186,0.005319753402085287,False,True,False,False
Guatemala,Guatemalan quetzal,Guatemala City,Spanish,0.5330188679245282,0.04195454626604539,0.00636831510888643,Central America,"['BLZ', 'SLV', 'HND', 'MEX']",0.0038035842785183157,0.5768321513002365,0.07597501266250212,0.056709000552181116,0.048338368580060416,0.4232142857142857,0.09492028179458657,0.546899841017488,0.012642404613767437,True,False,False,False
Sierra Leone,Leone,Freetown,English,0.46698113207547165,0.3231392712406049,0.004195635345153227,Western Africa,"['GIN', 'LBR']",0.00020559915019017924,0.5768321513002365,0.36721256120209356,0.0894533406957482,0.09063444108761329,0.3673469387755102,0.15090841675936226,0.4403815580286168,0.0061081280718202225,False,False,False,False
Monaco,Euro,Monaco,French,0.7993710691509434,0.3906236052344992,0.0,Western Europe,['FRA'],0.0002741322002535723,0.5768321513002365,0.08863751477291913,0.06874654886802871,0.1540785498489426,0.36798469387755106,0.1950315164998146,0.48489666136724957,0.0,False,False,True,False
Lebanon,Lebanese pound,Beirut,Arabic,0.705974842735849,0.49214765618695666,0.0006111728465750544,Western Asia,"['ISR', 'SYR']",0.0006167974505705377,0.5768321513002365,0.3376667229444538,0.12921038100496962,0.34441087613293053,0.4387755102040816,0.599925843529848,0.0,0.004091025313219126,False,True,False,False
Seychelles,Seychellois rupee,Victoria,Seychellois Creole,0.3435534591509434,0.5629645498723511,2.6317328597934438e-05,Eastern Africa,"['CHN', 'IND']",0.0,0.5768321513002365,0.02954583825763971,0.053782440640530095,0.09365558912386707,0.45153061224489793,0.21764923989618096,0.3815580286168521,4.261484701269923e-05,False,False,False,False
Zambia,Zambian kwacha,Lusaka,English,0.2452830188679245,0.47131915805259494,0.04401680996876498,Eastern Africa,"['AGO', 'BWA', 'COD', 'MWI', 'MOZ', 'NAM', 'TZA', 'ZWE']",0.000822396600760717,0.5768321513002365,0.24480837413472903,0.12203202650469354,0.3595166163141994,0.35969387755102045,0.24953652206154986,0.48489666136724957,0.013963464871161112,False,False,False,False
Venezuela,Venezuelan bolívar soberano,Caracas,Spanish,0.4622641509433962,0.12854158855979864,0.05359867337643953,South America,"['BRA', 'COL', 'GUY']",0.0037693177534866193,0.0,1.0,1.0,0.16314199395770393,0.3647959183673469,0.6006674082313682,0.5659777424483307,0.024183925679706814,True,False,False,False
Suriname,Surinamese dollar,Paramaribo,Dutch,0.4245283018867924,0.1642475853819649,0.009580984954686548,South America,"['BRA', 'GUF', 'GUY']",0.00010279957509508961,0.5768321513002365,0.1688333614722269,0.09442297073440088,0.2175226586102719,0.4362244897959184,0.3147942157953282,0.5039745627980922,0.0004190459956248757,True,False,False,False
Ukraine,Ukrainian hryvnia,Kyiv,Ukrainian,0.8490566037735849,0.4784603574170282,0.03529591236910456,Eastern Europe,"['BLR', 'HUN', 'MDA', 'POL', 'ROU', 'RUS', 'SVK']",0.0064763732309906456,0.5650118203309693,0.2616917102819517,0.12810601877415792,0.31419939577039274,0.0,0.3244345569150908,0.3720190779014308,0.029240887525213786,False,False,True,False
Latvia,Euro,Riga,Latvian,0.9245283018867925,0.4534661596415118,0.003775650597693857,Northern Europe,"['BLR', 'EST', 'LTU', 'RUS']",0.0014391940513312545,0.557919621749409,0.036299172716528785,0.07123136388735504,0.19939577039274922,0.4030612244897959,0.1649981460882462,0.4674085850556438,0.0012997528338873265,False,False,True,False
Germany,Euro,Berlin,German,0.8679245283018868,0.3963365647260458,0.020885891203873488,Western Europe,"['AUT', 'BEL', 'CZE', 'DNK', 'FRA', 'LUX', 'NLD', 'POL', 'CHE']",0.1596134735976425,0.5531914893617021,0.036299172716528785,0.061292103810049695,0.18731117824773413,0.3775510204081633,0.2232109751575825,0.5914149443561207,0.059348276939685786,False,False,True,False
Eritrea,Eritrean nakfa,Asmara,Arabic,0.5283018867924528,0.5034545551925447,0.0068777827505962985,Eastern Africa,"['DJI', 'ETH', 'SDN']",0.0,0.5768321513002365,0.08863751477291913,0.09994478188845941,0.16616314199395768,0.3622448979591837,0.5995550611790879,0.697933227344992,0.002251484417170942,False,False,False,False
Croatia,Euro,Zagreb,Croatian,0.8128930816981131,0.41954546266045384,0.003309813177625081,Southeast Europe,"['BIH', 'HUN', 'MNE', 'SRB', 'SVN']",0.003118253777884385,0.5673758865248227,0.036299172716528785,0.07288790723357261,0.11782477341389727,0.3877551020408163,0.20541342232109752,0.4817170111287758,0.0027131452598085173,False,False,True,False
Papua New Guinea,Papua New Guinean kina,Port Moresby,English,0.330188679245283,0.8890793208719405,0.027069334653238387,Melanesia,['IDN'],0.0010622622759825927,0.5768321513002365,0.06753334458889076,0.07940364439536168,0.07854984894259819,0.336734693877551,0.18094178717093068,0.7774244833068362,0.007486008125230831,False,False,False,True
Bosnia and Herzegovina,Bosnia and Herzegovina convertible mark,Sarajevo,Bosnian,0.8018867924528301,0.42847196186599545,0.0029948684811944015,Southeast Europe,"['HRV', 'MNE', 'SRB']",0.00089092965082411,0.5721040189125296,0.07867634644605774,0.07564881281060187,0.40181268882175225,0.41836734693877553,0.05413422321097515,0.437201907790143,0.002393533907213273,False,False,True,False
Montenegro,Euro,Podgorica,Montenegrin,0.7877358490566038,0.43311374145287707,0.0008076843006153666,Southeast Europe,"['ALB', 'BIH', 'HRV', 'UNK', 'SRB']",0.00020559915019017924,0.5768321513002365,0.08863751477291913,0.07509663169519602,0.27280966767371606,0.45408163265306123,0.21505376344086022,0.22257551669316372,0.00041194352112275916,False,False,True,False
Libya,Libyan dinar,Tripoli,Arabic,0.6226415094339622,0.4249013621837788,0.10290754966933152,Northern Africa,"['DZA', 'TCD', 'EGY', 'NER', 'SDN', 'TUN']",0.0015419936264263441,0.5768321513002365,0.050650008441668073,0.05963556046383214,0.5589123867069486,0.6658163265306122,0.2992213570634038,0.7949125596184419,0.005213216284553538,False,False,False,False
Qatar,Qatari riyal,Doha,Arabic,0.6273584905660377,0.5471944012996983,0.0006774954623136598,Western Asia,['SAU'],0.007401569406846452,0.5673758865248227,0.08610501435083572,0.04980673660960795,0.0,0.46683673469387754,0.14275120504263997,0.7774244833068362,0.0021875621466518934,False,True,False,False
Pakistan,Pakistani rupee,Islamabad,English,0.6698113207547169,0.6141431453412601,0.051578991816209147,Southern Asia,"['AFG', 'CHN', 'IND', 'IRN']",0.012712880786759416,0.697163120567376,0.1857166976194496,0.07288790723357261,0.16314199395770393,0.2755102040816327,0.28809788654060065,0.49284578696343395,0.1784354669166738,False,True,False,False
Guinea,Guinean franc,Conakry,French,0.490566037735849,0.3284951707639298,0.014378964167515445,Western Africa,"['CIV', 'GNB', 'LBR', 'MLI', 'SEN', 'SLE']",0.0007881300757290204,0.5768321513002365,0.1730541955090326,0.0623964660408614,0.1540785498489426,0.37244897959183676,0.14868372265480162,0.6647058823529411,0.00990795193045257,False,False,False,False
Brunei,Brunei dollar,Bandar Seri Begawan,Malay,0.4292452830188679,0.7736299311231323,0.0003370510652991782,South-Eastern Asia,['MYS'],0.000445464825412055,0.5768321513002365,0.0928583488097248,0.046935394809497516,0.1389728096676737,0.4770408163265306,0.0,0.7535771065182829,0.0002983039290888946,False,True,False,False
Madagascar,Malagasy ariary,Antananarivo,French,0.1981132075471698,0.5320193526502777,0.03433329867206601,Eastern Africa,"['CHN', 'IND']",0.0005139978754754481,0.5768321513002365,0.2026000337666723,0.09497515184980673,0.08761329305135951,0.3520408163265306,0.13533555802743788,0.4292527821939586,0.022671098610755988,False,False,False,False
Azerbaijan,Azerbaijani manat,Baku,Azerbaijani,0.7688679245283019,0.533804652491386,0.005064730644867227,Western Asia,"['ARM', 'GEO', 'IRN', 'RUS', 'TUR']",0.0024671898022821507,0.5768321513002365,0.11818335303055884,0.07785753727222529,0.15709969788519637,0.4387755102040816,0.06896551724137931,0.6009538950715421,0.007201909145146169,False,True,False,False
Palestine,Egyptian pound,Ramallah,Arabic,0.6877358490566037,0.48988627640012145,0.0003636619913671372,Western Asia,"['ISR', 'EGY', 'JOR']",0.0004111983003803585,0.5768321513002365,0.08863751477291913,0.3779679734953065,0.8610271903323263,0.461734693877551,0.10530218761586949,0.1653418124006359,0.003956078297678912,False,True,False,False
Central African Republic,Central African CFA franc,Bangui,French,0.45283018867924524,0.4391837609126453,0.03643544486033117,Middle Africa,"['CMR', 'TCD', 'COD', 'COG', 'SSD', 'SDN']",3.4266525031696545e-05,0.5768321513002365,0.07597501266250212,0.07288790723357261,0.18731117824773413,0.3239795918367347,0.21653689284390065,0.3736089030206677,0.0037572090116196485,False,False,False,False
Bahrain,Bahraini dinar,Manama,Arabic,0.6320754716981132,0.5446949815221467,4.462330631061829e-05,Western Asia,"['CHN', 'IND']",0.0015762601514580409,0.3813238770685579,0.08863751477291913,0.04803975704030922,0.18731117824773413,0.30612244897959184,0.4883203559510567,0.5850556438791732,0.0011008835478280635,False,True,False,False
Austria,Euro,Vienna,German,0.8333333333018867,0.4118091633370825,0.004905123574011271,Central Europe,"['CZE', 'DEU', 'HUN', 'ITA', 'LIE', 'SVK', 'SVN', 'CHE']",0.017818593016482198,0.5626477541371159,0.036299172716528785,0.07012700165654334,0.19939577039274922,0.32908163265306123,0.29477196885428253,0.5389507154213036,0.006505866643938748,False,False,True,False
France,Euro,Paris,French,0.820754716981132,0.37134236695052936,0.032266068358224084,Western Europe,"['AND', 'BEL', 'DEU', 'ITA', 'LUX', 'MCO', 'ESP', 'CHE']",0.10828221910016106,0.5673758865248227,0.036299172716528785,0.05577029265599116,0.22356495468277945,0.30102040816326536,0.41045606229143494,0.5071542130365659,0.04858092559447712,False,False,True,False
El Salvador,United States dollar,San Salvador,Spanish,0.5172955974528302,0.04671534586613818,0.0012304763545610267,Central America,"['GTM', 'HND']",0.0011307953260459858,0.5465721040189125,0.09083234847205808,0.049475427940364435,0.1540785498489426,0.3647959183673469,0.2181312569521691,0.4721780604133545,0.004453251512827069,True,False,False,False
Namibia,Namibian dollar,Windhoek,Afrikaans,0.1792452830188679,0.4249013621837788,0.04828643070665335,Southern Africa,"['AGO', 'BWA', 'ZAF', 'ZMB']",0.00037693177534866196,0.4848699763593381,0.11396251899375316,0.06957482054113749,0.5740181268882175,0.3494897959183674,0.2335928809788654,0.2575516693163752,0.0018821557430608825,False,False,False,False
Australia,Australian dollar,Canberra,English,0.13207547169811318,0.8390909253209077,0.4498721499404291,Australia and New Zealand,"['CHN', 'IND']",0.05996641880546894,0.5650118203309693,0.06078001013000169,0.061844284925455545,0.12386706948640483,0.4642857142857143,0.15387467556544307,0.4674085850556438,0.019432370237790847,False,False,False,True
Morocco,Moroccan dirham,Rabat,Arabic,0.6886792452830188,0.346348169175013,0.026116605014453658,Northern Africa,"['DZA', 'ESH', 'ESP']",0.005208511804817874,0.5862884160756502,0.03798750633125106,0.0530093870789619,0.38368580060422963,0.3494897959183674,0.25101965146459027,0.45627980922098565,0.026513537316401034,False,False,False,False
Ireland,Euro,Dublin,English,0.8867924528301887,0.33563637012836306,0.0041098370406659835,Northern Europe,['GBR'],0.01970325189322551,0.5366430260047281,0.036299172716528785,0.05963556046383214,0.14501510574018125,0.5586734693877551,0.14312198739340007,0.7742448330683624,0.0038353362311429307,False,False,True,False
Nicaragua,Nicaraguan córdoba,Managua,Spanish,0.5094339622641509,0.060700194597682666,0.0076248187037084745,Central America,"['CRI', 'HND']",0.0006167974505705377,0.5768321513002365,0.10552085092014182,0.053782440640530095,0.08157099697885195,0.45663265306122447,0.1364479050797182,0.5675675675675675,0.004850990084945595,True,False,False,False
Bahamas,Bahamian dollar,Nassau,English,0.6229650943396227,0.08784996340135326,0.0008153459079008669,Caribbean,"['CHN', 'IND']",0.00047973135044375155,0.5768321513002365,0.06753334458889076,0.04803975704030922,0.2809667673716012,0.41581632653061223,0.2936596218020022,0.37519872813990457,0.0002627915565783119,True,False,False,False
Oman,Omani rial,Muscat,Arabic,0.5849056603773585,0.5677253494724439,0.01810116014057723,Western Asia,"['SAU', 'ARE', 'YEM']",0.0035979851283281365,0.5768321513002365,0.08441668073611346,0.054665930425179456,0.09365558912386707,0.5051020408163265,0.12680756395995552,0.5802861685214626,0.0037145941646069486,False,True,False,False
Switzerland,Swiss franc,Bern,French,0.830188679245283,0.39276596504382916,0.0024143993796021104,Western Europe,"['AUT', 'FRA', 'ITA', 'LIE', 'DEU']",0.032039200904636266,0.5626477541371159,0.0,0.05135284373274434,0.07854984894259819,0.4642857142857143,0.13088616981831666,0.5818759936406994,0.006399329526407001,False,False,True,False
Iceland,Icelandic króna,Reykjavik,Icelandic,1.0,0.29993037330619676,0.006023893694349703,Northern Europe,"['CHN', 'IND']",0.0010622622759825927,0.624113475177305,0.12662502110417018,0.07233572611816676,0.08157099697885195,0.3622448979591837,0.21134593993325917,0.45786963434022254,0.0002485866075740788,False,False,True,False
Japan,Japanese yen,Tokyo,Japanese,0.7264150943396226,0.8569439237319909,0.022103326450094662,Eastern Asia,"['CHN', 'IND']",0.13788849672754688,0.5673758865248227,0.008441668073611346,0.06736609607951408,0.07250755287009063,0.3903061224489796,0.8691138301816833,0.5755166931637519,0.08566294497002756,False,True,False,False
Netherlands,Euro,Amsterdam,Dutch,0.8820754716981132,0.3847321157588417,0.0024475022019196154,Western Europe,"['BEL', 'DEU']",0.04201075968885996,0.5626477541371159,0.036299172716528785,0.06626173384870238,0.11178247734138971,0.42091836734693877,0.153503893214683,0.6454689984101748,0.012784454103809767,False,False,True,False
Belarus,Belarusian ruble,Minsk,Belarusian,0.8867924528301887,0.4641779586881617,0.012141482412390377,Eastern Europe,"['LVA', 'LTU', 'POL', 'RUS', 'UKR']",0.0025357228523455438,0.5768321513002365,0.16461252743542124,0.09110988404196577,0.08761329305135951,0.4413265306122449,0.08045977011494253,0.4610492845786963,0.0064419443734196995,False,False,True,False
Uganda,Ugandan shilling,Kampala,English,0.3962264150943396,0.4784603574170282,0.0141270668959227,Eastern Africa,"['COD', 'KEN', 'RWA', 'SSD', 'TZA']",0.00178185930164822,0.6477541371158393,0.16461252743542124,0.07123136388735504,0.08459214501510573,0.32908163265306123,0.1835372636262514,0.3543720190779014,0.035498167561578454,False,False,False,False
Yemen,Yemeni rial,Sana'a,Arabic,0.5283018867924528,0.5355899523324943,0.03087838167071977,Western Asia,"['OMN', 'SAU']",0.0005825309255388411,0.5768321513002365,0.45585007597501265,0.0545002760905577,0.513595166163142,0.3163265306122449,0.25435669262143124,0.40699523052464226,0.028793431631580442,False,True,False,False
Haiti,Haitian gourde,Port-au-Prince,French,0.5660377358490566,0.10563024062271259,0.0016228559215718764,Caribbean,['DOM'],0.0007881300757290204,0.5768321513002365,0.28701671450278576,0.21369409166206516,0.45317220543806647,0.6301020408163265,0.04338153503893215,0.49443561208267084,0.008423534759510213,True,False,False,False
Argentina,Argentine peso,Buenos Aires,Guaraní,0.06603773584905659,0.13568278792423188,0.16261311007754378,South America,"['BOL', 'BRA', 'CHL', 'PRY', 'URY']",0.021622177295000516,0.5791962174940899,0.48961674826945806,0.2523467697404749,0.23564954682779454,0.3375,0.299962921764924,0.5103338632750397,0.03340293758345408,True,False,False,False
Egypt,Egyptian pound,Cairo,Arabic,0.6415094339622641,0.47131915805259494,0.05862872325880175,Northern Africa,"['ISR', 'LBY', 'PSE', 'SDN']",0.01326114518726656,0.7919621749408985,0.4052000675333446,0.12700165654334622,0.18126888217522658,0.2678571428571429,0.2988505747126437,0.41653418124006353,0.07611011676468082,False,False,False,False
Kuwait,Kuwaiti dinar,Kuwait City,Arabic,0.6650943396226414,0.5275561030475069,0.0010419774211170008,Western Asia,"['IRQ', 'SAU']",0.005414110955008052,0.6713947990543736,0.06753334458889076,0.06344561016013252,0.060422960725075525,1.0,0.0025954764553207266,0.9491255961844196,0.0033736753885053555,False,True,False,False
Cayman Islands,Cayman Islands dollar,George Town,English,0.5689933962264151,0.07407351864745687,1.5322044859964586e-05,Caribbean,"['CHN', 'IND']",0.0001713326251584827,0.5768321513002365,0.08863751477291913,0.06018774157923799,0.08157099697885195,0.42091836734693877,0.0196514645902855,0.37837837837837834,3.551237251058269e-05,True,False,False,False
Gabon,Central African CFA franc,Libreville,French,0.3773584905660377,0.4061557138521415,0.01565459253777534,Middle Africa,"['CMR', 'COG', 'GNQ']",0.0006510639756022342,0.5768321513002365,0.07597501266250212,0.054113749309773605,0.6042296072507554,0.37244897959183676,0.26362625139043383,0.5818759936406994,0.0017756186255291346,False,False,False,False
Sri Lanka,Sri Lankan rupee,Sri Jayawardenepura Kotte,Sinhala,0.45283018867924524,0.653419741845643,0.003837118912633252,Southern Asia,['IND'],0.0033238529280745642,0.5933806146572105,0.13084585514097585,0.048591938155715074,0.11178247734138971,0.2755102040816327,0.3477938450129774,0.519872813990461,0.016378306201880737,False,True,False,False
Trinidad and Tobago,Trinidad and Tobago dollar,Port of Spain,English,0.4876584905660377,0.14560012854158857,0.0002999127399076311,Caribbean,"['CHN', 'IND']",0.000822396600760717,0.6217494089834515,0.05909167651527942,0.05853119823302043,0.14501510574018125,0.2780612244897959,0.19948090470893587,0.6057233704292527,0.0009446291087814995,True,False,False,False
Colombia,Colombian peso,Bogotá,Spanish,0.4245283018867924,0.10711799046649884,0.06677564365311944,South America,"['BRA', 'ECU', 'PAN', 'PER', 'VEN']",0.014289140938217456,0.5721040189125296,0.15617085936180988,0.07730535615681944,0.256797583081571,0.30102040816326536,0.21876158694846123,0.4721780604133545,0.03759339753970283,True,False,False,False
Macau,Macanese pataca,Abu Dhabi,Portuguese,0.5959119496226415,0.7696427615017942,1.6364257392999816e-06,Eastern Asia,['CHN'],0.001644793201521434,0.5768321513002365,0.08019584669930778,0.05091109884041965,0.05438066465256797,0.36798469387755106,0.1950315164998146,0.9999999999999999,0.00046166084263757486,False,True,False,False
Mexico,Mexican peso,Mexico City,Spanish,0.6037735849056604,0.0,0.11488743767181586,North America,"['BLZ', 'GTM', 'USA']",0.06342733783367029,0.574468085106383,0.13084585514097585,0.06963003865267808,0.07854984894259819,0.3035714285714286,0.17575083426028923,0.4880763116057233,0.09291457143668856,True,False,False,False
New Caledonia,CFP franc,Nouméa,French,0.18396226415094338,0.9551354149929481,0.0010862509838278688,Melanesia,"['CHN', 'IND']",0.0002741322002535723,0.5768321513002365,0.03376667229444538,0.054665930425179456,0.33534743202416917,0.36798469387755106,0.1950315164998146,0.48489666136724957,0.00017756186255291344,False,False,False,True
Kosovo,Euro,Pristina,Albanian,0.789308179245283,0.4397788620498813,0.000637842258194811,Southeast Europe,"['ALB', 'MKD', 'MNE', 'SRB']",0.00030839872528526884,0.5768321513002365,0.08863751477291913,0.07399226946438431,0.3232628398791541,0.45408163265306123,0.05413422321097515,0.35771065182829886,0.00110798602233018,False,False,True,False
Malaysia,Malaysian ringgit,Kuala Lumpur,English,0.410377358490566,0.7658936318354668,0.019347077850523888,South-Eastern Asia,"['BRN', 'IDN', 'THA']",0.014391940513312546,0.6099290780141844,0.0464291744048624,0.05687465488680287,0.08761329305135951,0.34438775510204084,0.2525027808676307,0.5278219395866454,0.024191028154208927,False,True,False,False
Fiji,Fijian dollar,Suva,English,0.21968490566037732,1.0,0.001068529861633162,Melanesia,"['CHN', 'IND']",0.00013706610012678618,0.5768321513002365,0.004220834036805673,0.04803975704030922,0.1268882175226586,0.3622448979591837,0.2817945865776789,0.3624801271860095,0.0006321202306883718,False,False,False,True
Jamaica,Jamaican dollar,Kingston,English,0.5589622641509433,0.0874796922143074,0.0006426965589940211,Caribbean,"['CHN', 'IND']",0.0006167974505705377,0.5791962174940899,0.09707918284653047,0.06847045831032578,0.09667673716012083,0.42346938775510207,0.24323322209862813,0.5214626391096979,0.0019744879115883972,True,False,False,False
